{
"type": "FeatureCollection",
"name": "ups_facilities",
"crs": { "type": "name", "properties": { "name": "urn:ogc:def:crs:OGC:1.3:CRS84" } },
"features": [
{ "type": "Feature", "properties": { "OBJECTID": 48120, "FEATURE_ID": 26329.0, "NAME": "THE UPS STORE", "ADDRESS": "139 CHARLES ST", "ADDRESS2": "NOT AVAILABLE", "ADDRESS3": "NOT AVAILABLE", "CITY": "BOSTON", "STATE": "MA", "PHONE": "(617) 573-0005", "LATITUDE": 42.36015, "LONGITUDE": -71.070797, "MATCH_STAT": "OK", "PLACEMENT": "NOT AVAILABLE", "CENSUS_COD": "250250202003001", "BUSINESS_N": "Not Available", "ZIP": "02114" }, "geometry": { "type": "Point", "coordinates": [ -71.0707969999, 42.36015 ] } },
{ "type": "Feature", "properties": { "OBJECTID": 48121, "FEATURE_ID": 26330.0, "NAME": "THE UPS STORE", "ADDRESS": "198 TREMONT ST", "ADDRESS2": "NOT AVAILABLE", "ADDRESS3": "NOT AVAILABLE", "CITY": "BOSTON", "STATE": "MA", "PHONE": "(617) 426-3039", "LATITUDE": 42.352082, "LONGITUDE": -71.064593, "MATCH_STAT": "OK", "PLACEMENT": "NOT AVAILABLE", "CENSUS_COD": "250250701002017", "BUSINESS_N": "Not Available", "ZIP": "02116" }, "geometry": { "type": "Point", "coordinates": [ -71.0645930001, 42.3520819999 ] } },
{ "type": "Feature", "properties": { "OBJECTID": 48122, "FEATURE_ID": 26331.0, "NAME": "UPS DROP BOX", "ADDRESS": "1 ASHBURTON PL", "ADDRESS2": "NOT AVAILABLE", "ADDRESS3": "NOT AVAILABLE", "CITY": "BOSTON", "STATE": "MA", "PHONE": "(617) 670-1121", "LATITUDE": 42.35928, "LONGITUDE": -71.061632, "MATCH_STAT": "OK", "PLACEMENT": "NOT AVAILABLE", "CENSUS_COD": "250250303003018", "BUSINESS_N": "Self-Serve Drop Box", "ZIP": "02108" }, "geometry": { "type": "Point", "coordinates": [ -71.0616320002, 42.3592799997 ] } },
{ "type": "Feature", "properties": { "OBJECTID": 48123, "FEATURE_ID": 26332.0, "NAME": "UPS DROP BOX", "ADDRESS": "260 TREMONT ST", "ADDRESS2": "NOT AVAILABLE", "ADDRESS3": "NOT AVAILABLE", "CITY": "BOSTON", "STATE": "MA", "PHONE": "(617) 670-1121", "LATITUDE": 42.350485, "LONGITUDE": -71.065047, "MATCH_STAT": "OK", "PLACEMENT": "NOT AVAILABLE", "CENSUS_COD": "250250702003006", "BUSINESS_N": "Self-Serve Drop Box", "ZIP": "02116" }, "geometry": { "type": "Point", "coordinates": [ -71.0650469996, 42.3504850001 ] } },
{ "type": "Feature", "properties": { "OBJECTID": 48124, "FEATURE_ID": 26333.0, "NAME": "UPS DROP BOX", "ADDRESS": "1 BEACON ST", "ADDRESS2": "NOT AVAILABLE", "ADDRESS3": "NOT AVAILABLE", "CITY": "BOSTON", "STATE": "MA", "PHONE": "(617) 670-1121", "LATITUDE": 42.358302, "LONGITUDE": -71.061299, "MATCH_STAT": "OK", "PLACEMENT": "NOT AVAILABLE", "CENSUS_COD": "250250303003017", "BUSINESS_N": "Self-Serve Drop Box", "ZIP": "02108" }, "geometry": { "type": "Point", "coordinates": [ -71.0612990001, 42.3583020002 ] } },
{ "type": "Feature", "properties": { "OBJECTID": 48125, "FEATURE_ID": 26334.0, "NAME": "UPS DROP BOX", "ADDRESS": "141 TREMONT ST", "ADDRESS2": "NOT AVAILABLE", "ADDRESS3": "NOT AVAILABLE", "CITY": "BOSTON", "STATE": "MA", "PHONE": "(617) 670-1121", "LATITUDE": 42.355624, "LONGITUDE": -71.062866, "MATCH_STAT": "OK", "PLACEMENT": "NOT AVAILABLE", "CENSUS_COD": "250250701003010", "BUSINESS_N": "Self-Serve Drop Box", "ZIP": "02111" }, "geometry": { "type": "Point", "coordinates": [ -71.0628659997, 42.3556240002 ] } },
{ "type": "Feature", "properties": { "OBJECTID": 48126, "FEATURE_ID": 26335.0, "NAME": "UPS DROP BOX", "ADDRESS": "100 CAMBRIDGE ST", "ADDRESS2": "NOT AVAILABLE", "ADDRESS3": "NOT AVAILABLE", "CITY": "BOSTON", "STATE": "MA", "PHONE": "(617) 670-1121", "LATITUDE": 42.370581, "LONGITUDE": -71.076723, "MATCH_STAT": "OK", "PLACEMENT": "NOT AVAILABLE", "CENSUS_COD": "250173521001013", "BUSINESS_N": "Self-Serve Drop Box", "ZIP": "02141" }, "geometry": { "type": "Point", "coordinates": [ -71.0767229999, 42.3705809998 ] } },
{ "type": "Feature", "properties": { "OBJECTID": 48127, "FEATURE_ID": 26336.0, "NAME": "UPS DROP BOX", "ADDRESS": "185 CAMBRIDGE ST", "ADDRESS2": "NOT AVAILABLE", "ADDRESS3": "NOT AVAILABLE", "CITY": "BOSTON", "STATE": "MA", "PHONE": "(617) 670-1121", "LATITUDE": 42.361255, "LONGITUDE": -71.065791, "MATCH_STAT": "OK", "PLACEMENT": "NOT AVAILABLE", "CENSUS_COD": "250250203001040", "BUSINESS_N": "Self-Serve Drop Box", "ZIP": "02114" }, "geometry": { "type": "Point", "coordinates": [ -71.0657909996, 42.3612550003 ] } },
{ "type": "Feature", "properties": { "OBJECTID": 48128, "FEATURE_ID": 26337.0, "NAME": "UPS DROP BOX", "ADDRESS": "1 BOWDOIN SQ", "ADDRESS2": "NOT AVAILABLE", "ADDRESS3": "NOT AVAILABLE", "CITY": "BOSTON", "STATE": "MA", "PHONE": "(617) 670-1121", "LATITUDE": 42.36151, "LONGITUDE": -71.062668, "MATCH_STAT": "OK", "PLACEMENT": "NOT AVAILABLE", "CENSUS_COD": "250250303003007", "BUSINESS_N": "Self-Serve Drop Box", "ZIP": "02114" }, "geometry": { "type": "Point", "coordinates": [ -71.0626680003, 42.3615100003 ] } },
{ "type": "Feature", "properties": { "OBJECTID": 48129, "FEATURE_ID": 26338.0, "NAME": "UPS DROP BOX", "ADDRESS": "25 NEW SUDBURY ST", "ADDRESS2": "NOT AVAILABLE", "ADDRESS3": "NOT AVAILABLE", "CITY": "BOSTON", "STATE": "MA", "PHONE": "(617) 670-1121", "LATITUDE": 42.361744, "LONGITUDE": -71.059874, "MATCH_STAT": "OK", "PLACEMENT": "NOT AVAILABLE", "CENSUS_COD": "250250303003010", "BUSINESS_N": "Self-Serve Drop Box", "ZIP": "02108" }, "geometry": { "type": "Point", "coordinates": [ -71.0598739999, 42.3617440002 ] } },
{ "type": "Feature", "properties": { "OBJECTID": 48130, "FEATURE_ID": 26339.0, "NAME": "UPS DROP BOX", "ADDRESS": "50 STANIFORD ST", "ADDRESS2": "NOT AVAILABLE", "ADDRESS3": "NOT AVAILABLE", "CITY": "BOSTON", "STATE": "MA", "PHONE": "(617) 670-1121", "LATITUDE": 42.361734, "LONGITUDE": -71.063966, "MATCH_STAT": "OK", "PLACEMENT": "NOT AVAILABLE", "CENSUS_COD": "250250203001040", "BUSINESS_N": "Self-Serve Drop Box", "ZIP": "02114" }, "geometry": { "type": "Point", "coordinates": [ -71.0639660003, 42.3617339998 ] } },
{ "type": "Feature", "properties": { "OBJECTID": 48131, "FEATURE_ID": 26340.0, "NAME": "UPS DROP BOX", "ADDRESS": "33 ARCH ST", "ADDRESS2": "NOT AVAILABLE", "ADDRESS3": "NOT AVAILABLE", "CITY": "BOSTON", "STATE": "MA", "PHONE": "NOT AVAILABLE", "LATITUDE": 42.356182, "LONGITUDE": -71.057828, "MATCH_STAT": "OK", "PLACEMENT": "NOT AVAILABLE", "CENSUS_COD": "250250701002000", "BUSINESS_N": "Self-Serve Drop Box", "ZIP": "02110" }, "geometry": { "type": "Point", "coordinates": [ -71.0578279997, 42.3561819998 ] } },
{ "type": "Feature", "properties": { "OBJECTID": 48132, "FEATURE_ID": 26341.0, "NAME": "UPS DROP BOX", "ADDRESS": "50 MILK ST", "ADDRESS2": "NOT AVAILABLE", "ADDRESS3": "NOT AVAILABLE", "CITY": "BOSTON", "STATE": "MA", "PHONE": "NOT AVAILABLE", "LATITUDE": 42.356846, "LONGITUDE": -71.057355, "MATCH_STAT": "OK", "PLACEMENT": "NOT AVAILABLE", "CENSUS_COD": "250250303004006", "BUSINESS_N": "Self-Serve Drop Box", "ZIP": "02109" }, "geometry": { "type": "Point", "coordinates": [ -71.0573549998, 42.3568459997 ] } },
{ "type": "Feature", "properties": { "OBJECTID": 48133, "FEATURE_ID": 26342.0, "NAME": "UPS DROP BOX", "ADDRESS": "101 ARCH ST", "ADDRESS2": "NOT AVAILABLE", "ADDRESS3": "NOT AVAILABLE", "CITY": "BOSTON", "STATE": "MA", "PHONE": "NOT AVAILABLE", "LATITUDE": 42.355022, "LONGITUDE": -71.058481, "MATCH_STAT": "OK", "PLACEMENT": "NOT AVAILABLE", "CENSUS_COD": "250250701002005", "BUSINESS_N": "Self-Serve Drop Box", "ZIP": "02110" }, "geometry": { "type": "Point", "coordinates": [ -71.0584810003, 42.3550220001 ] } },
{ "type": "Feature", "properties": { "OBJECTID": 48134, "FEATURE_ID": 26343.0, "NAME": "UPS DROP BOX", "ADDRESS": "28 STATE ST", "ADDRESS2": "NOT AVAILABLE", "ADDRESS3": "NOT AVAILABLE", "CITY": "BOSTON", "STATE": "MA", "PHONE": "NOT AVAILABLE", "LATITUDE": 42.35891, "LONGITUDE": -71.057108, "MATCH_STAT": "OK", "PLACEMENT": "NOT AVAILABLE", "CENSUS_COD": "250250303003010", "BUSINESS_N": "Self-Serve Drop Box", "ZIP": "02109" }, "geometry": { "type": "Point", "coordinates": [ -71.057108, 42.3589100001 ] } },
{ "type": "Feature", "properties": { "OBJECTID": 48135, "FEATURE_ID": 26344.0, "NAME": "UPS DROP BOX", "ADDRESS": "1 FEDERAL ST", "ADDRESS2": "NOT AVAILABLE", "ADDRESS3": "NOT AVAILABLE", "CITY": "BOSTON", "STATE": "MA", "PHONE": "NOT AVAILABLE", "LATITUDE": 42.356715, "LONGITUDE": -71.056615, "MATCH_STAT": "OK", "PLACEMENT": "NOT AVAILABLE", "CENSUS_COD": "250250701001024", "BUSINESS_N": "Self-Serve Drop Box", "ZIP": "02110" }, "geometry": { "type": "Point", "coordinates": [ -71.0566150001, 42.3567150003 ] } },
{ "type": "Feature", "properties": { "OBJECTID": 48136, "FEATURE_ID": 26345.0, "NAME": "UPS DROP BOX", "ADDRESS": "1 POST OFFICE SQ", "ADDRESS2": "NOT AVAILABLE", "ADDRESS3": "NOT AVAILABLE", "CITY": "BOSTON", "STATE": "MA", "PHONE": "NOT AVAILABLE", "LATITUDE": 42.357534, "LONGITUDE": -71.056376, "MATCH_STAT": "OK", "PLACEMENT": "NOT AVAILABLE", "CENSUS_COD": "250250303004005", "BUSINESS_N": "Self-Serve Drop Box", "ZIP": "02109" }, "geometry": { "type": "Point", "coordinates": [ -71.0563759997, 42.3575340001 ] } },
{ "type": "Feature", "properties": { "OBJECTID": 48137, "FEATURE_ID": 26346.0, "NAME": "UPS DROP BOX", "ADDRESS": "101 MERRIMAC ST", "ADDRESS2": "NOT AVAILABLE", "ADDRESS3": "NOT AVAILABLE", "CITY": "BOSTON", "STATE": "MA", "PHONE": "NOT AVAILABLE", "LATITUDE": 42.363566, "LONGITUDE": -71.061518, "MATCH_STAT": "OK", "PLACEMENT": "NOT AVAILABLE", "CENSUS_COD": "250250203001018", "BUSINESS_N": "Self-Serve Drop Box", "ZIP": "02114" }, "geometry": { "type": "Point", "coordinates": [ -71.0615180004, 42.3635659999 ] } },
{ "type": "Feature", "properties": { "OBJECTID": 48603, "FEATURE_ID": 25951.0, "NAME": "THE UPS STORE", "ADDRESS": "71 COMMERCIAL ST", "ADDRESS2": "NOT AVAILABLE", "ADDRESS3": "NOT AVAILABLE", "CITY": "BOSTON", "STATE": "MA", "PHONE": "(617) 670-1121", "LATITUDE": 42.361575, "LONGITUDE": -71.052915, "MATCH_STAT": "OK", "PLACEMENT": "NOT AVAILABLE", "CENSUS_COD": "250250303001005", "BUSINESS_N": "Not Available", "ZIP": "02109" }, "geometry": { "type": "Point", "coordinates": [ -71.0529150002, 42.3615750001 ] } },
{ "type": "Feature", "properties": { "OBJECTID": 48606, "FEATURE_ID": 25954.0, "NAME": "UPS DROP BOX", "ADDRESS": "400 TERMINAL D", "ADDRESS2": "NOT AVAILABLE", "ADDRESS3": "NOT AVAILABLE", "CITY": "BOSTON", "STATE": "MA", "PHONE": "(617) 670-1121", "LATITUDE": 42.36664, "LONGITUDE": -71.017337, "MATCH_STAT": "OK", "PLACEMENT": "NOT AVAILABLE", "CENSUS_COD": "250250512009000", "BUSINESS_N": "Self-Serve Drop Box", "ZIP": "02128" }, "geometry": { "type": "Point", "coordinates": [ -71.0173369997, 42.3666400001 ] } },
{ "type": "Feature", "properties": { "OBJECTID": 48607, "FEATURE_ID": 25955.0, "NAME": "UPS DROP BOX", "ADDRESS": "1 LOGAN AIRPORT", "ADDRESS2": "NOT AVAILABLE", "ADDRESS3": "NOT AVAILABLE", "CITY": "BOSTON", "STATE": "MA", "PHONE": "(617) 670-1121", "LATITUDE": 42.37852, "LONGITUDE": -71.029463, "MATCH_STAT": "ZIP CENTROID", "PLACEMENT": "\\NPLACEMENT: ZIP CENTROID", "CENSUS_COD": "250250509003012", "BUSINESS_N": "Self-Serve Drop Box", "ZIP": "02128" }, "geometry": { "type": "Point", "coordinates": [ -71.0294630002, 42.3785200001 ] } },
{ "type": "Feature", "properties": { "OBJECTID": 48608, "FEATURE_ID": 25956.0, "NAME": "UPS DROP BOX", "ADDRESS": "85 TERMINAL RD", "ADDRESS2": "NOT AVAILABLE", "ADDRESS3": "NOT AVAILABLE", "CITY": "BOSTON", "STATE": "MA", "PHONE": "(617) 670-1121", "LATITUDE": 42.367275, "LONGITUDE": -71.01783, "MATCH_STAT": "OK", "PLACEMENT": "NOT AVAILABLE", "CENSUS_COD": "250250512009000", "BUSINESS_N": "Self-Serve Drop Box", "ZIP": "02128" }, "geometry": { "type": "Point", "coordinates": [ -71.0178299996, 42.3672750001 ] } },
{ "type": "Feature", "properties": { "OBJECTID": 48758, "FEATURE_ID": 26474.0, "NAME": "UPS DROP BOX", "ADDRESS": "647B SUMMER ST", "ADDRESS2": "NOT AVAILABLE", "ADDRESS3": "NOT AVAILABLE", "CITY": "BOSTON", "STATE": "MA", "PHONE": "NOT AVAILABLE", "LATITUDE": 42.344169, "LONGITUDE": -71.039055, "MATCH_STAT": "OK", "PLACEMENT": "NOT AVAILABLE", "CENSUS_COD": "250250605002000", "BUSINESS_N": "Self-Serve Drop Box", "ZIP": "02210" }, "geometry": { "type": "Point", "coordinates": [ -71.0390549997, 42.3441689997 ] } },
{ "type": "Feature", "properties": { "OBJECTID": 48759, "FEATURE_ID": 26475.0, "NAME": "UPS DROP BOX", "ADDRESS": "655 SUMMER ST", "ADDRESS2": "NOT AVAILABLE", "ADDRESS3": "NOT AVAILABLE", "CITY": "BOSTON", "STATE": "MA", "PHONE": "NOT AVAILABLE", "LATITUDE": 42.344053, "LONGITUDE": -71.038867, "MATCH_STAT": "OK", "PLACEMENT": "NOT AVAILABLE", "CENSUS_COD": "250250605002000", "BUSINESS_N": "Self-Serve Drop Box", "ZIP": "02210" }, "geometry": { "type": "Point", "coordinates": [ -71.0388670003, 42.3440529999 ] } },
{ "type": "Feature", "properties": { "OBJECTID": 48762, "FEATURE_ID": 26478.0, "NAME": "UPS DROP BOX", "ADDRESS": "451 D ST", "ADDRESS2": "NOT AVAILABLE", "ADDRESS3": "NOT AVAILABLE", "CITY": "BOSTON", "STATE": "MA", "PHONE": "(800) 742-5877", "LATITUDE": 42.345551, "LONGITUDE": -71.04289, "MATCH_STAT": "OK", "PLACEMENT": "NOT AVAILABLE", "CENSUS_COD": "250250606001032", "BUSINESS_N": "Self-Serve Drop Box", "ZIP": "02210" }, "geometry": { "type": "Point", "coordinates": [ -71.0428900002, 42.3455510002 ] } },
{ "type": "Feature", "properties": { "OBJECTID": 48763, "FEATURE_ID": 26479.0, "NAME": "UPS DROP BOX", "ADDRESS": "1 DESIGN CENTER PL", "ADDRESS2": "NOT AVAILABLE", "ADDRESS3": "NOT AVAILABLE", "CITY": "BOSTON", "STATE": "MA", "PHONE": "(800) 742-5877", "LATITUDE": 42.344715, "LONGITUDE": -71.032048, "MATCH_STAT": "OK", "PLACEMENT": "NOT AVAILABLE", "CENSUS_COD": "250250606001000", "BUSINESS_N": "Self-Serve Drop Box", "ZIP": "02210" }, "geometry": { "type": "Point", "coordinates": [ -71.0320480003, 42.3447149999 ] } },
{ "type": "Feature", "properties": { "OBJECTID": 48767, "FEATURE_ID": 26483.0, "NAME": "UPS DROP BOX", "ADDRESS": "2 SEAPORT LN", "ADDRESS2": "NOT AVAILABLE", "ADDRESS3": "NOT AVAILABLE", "CITY": "BOSTON", "STATE": "MA", "PHONE": "(800) 742-5877", "LATITUDE": 42.34861, "LONGITUDE": -71.041528, "MATCH_STAT": "OK", "PLACEMENT": "NOT AVAILABLE", "CENSUS_COD": "250250606001026", "BUSINESS_N": "Self-Serve Drop Box", "ZIP": "02210" }, "geometry": { "type": "Point", "coordinates": [ -71.0415279997, 42.3486099997 ] } },
{ "type": "Feature", "properties": { "OBJECTID": 48768, "FEATURE_ID": 26484.0, "NAME": "UPS DROP BOX", "ADDRESS": "164 NORTHERN AVE", "ADDRESS2": "NOT AVAILABLE", "ADDRESS3": "NOT AVAILABLE", "CITY": "BOSTON", "STATE": "MA", "PHONE": "(800) 742-5877", "LATITUDE": 42.350643, "LONGITUDE": -71.04307, "MATCH_STAT": "OK", "PLACEMENT": "NOT AVAILABLE", "CENSUS_COD": "250250606001009", "BUSINESS_N": "Self-Serve Drop Box", "ZIP": "02210" }, "geometry": { "type": "Point", "coordinates": [ -71.0430700001, 42.3506430002 ] } },
{ "type": "Feature", "properties": { "OBJECTID": 48833, "FEATURE_ID": 26347.0, "NAME": "UPS DROP BOX", "ADDRESS": "55 FRUIT ST", "ADDRESS2": "NOT AVAILABLE", "ADDRESS3": "NOT AVAILABLE", "CITY": "BOSTON", "STATE": "MA", "PHONE": "NOT AVAILABLE", "LATITUDE": 42.362451, "LONGITUDE": -71.069756, "MATCH_STAT": "OK", "PLACEMENT": "NOT AVAILABLE", "CENSUS_COD": "250250203001041", "BUSINESS_N": "Mass General Hospital", "ZIP": "02114" }, "geometry": { "type": "Point", "coordinates": [ -71.0697559998, 42.3624510002 ] } },
{ "type": "Feature", "properties": { "OBJECTID": 48834, "FEATURE_ID": 26348.0, "NAME": "UPS DROP BOX", "ADDRESS": "99 SUMMER ST", "ADDRESS2": "NOT AVAILABLE", "ADDRESS3": "NOT AVAILABLE", "CITY": "BOSTON", "STATE": "MA", "PHONE": "NOT AVAILABLE", "LATITUDE": 42.353841, "LONGITUDE": -71.058189, "MATCH_STAT": "OK", "PLACEMENT": "NOT AVAILABLE", "CENSUS_COD": "250250701001038", "BUSINESS_N": "Self-Serve Drop Box", "ZIP": "02110" }, "geometry": { "type": "Point", "coordinates": [ -71.0581890002, 42.3538409999 ] } },
{ "type": "Feature", "properties": { "OBJECTID": 48835, "FEATURE_ID": 26349.0, "NAME": "UPS DROP BOX", "ADDRESS": "100 FEDERAL ST", "ADDRESS2": "NOT AVAILABLE", "ADDRESS3": "NOT AVAILABLE", "CITY": "BOSTON", "STATE": "MA", "PHONE": "NOT AVAILABLE", "LATITUDE": 42.355491, "LONGITUDE": -71.056367, "MATCH_STAT": "OK", "PLACEMENT": "NOT AVAILABLE", "CENSUS_COD": "250250701001029", "BUSINESS_N": "Self-Serve Drop Box", "ZIP": "02110" }, "geometry": { "type": "Point", "coordinates": [ -71.0563670004, 42.3554910001 ] } },
{ "type": "Feature", "properties": { "OBJECTID": 48836, "FEATURE_ID": 26350.0, "NAME": "UPS DROP BOX", "ADDRESS": "10 CAUSEWAY ST", "ADDRESS2": "NOT AVAILABLE", "ADDRESS3": "NOT AVAILABLE", "CITY": "BOSTON", "STATE": "MA", "PHONE": "NOT AVAILABLE", "LATITUDE": 42.364629, "LONGITUDE": -71.062895, "MATCH_STAT": "OK", "PLACEMENT": "NOT AVAILABLE", "CENSUS_COD": "250250203001015", "BUSINESS_N": "Self-Serve Drop Box", "ZIP": "02114" }, "geometry": { "type": "Point", "coordinates": [ -71.062895, 42.3646289997 ] } },
{ "type": "Feature", "properties": { "OBJECTID": 48837, "FEATURE_ID": 26351.0, "NAME": "UPS DROP BOX", "ADDRESS": "150 FEDERAL ST", "ADDRESS2": "NOT AVAILABLE", "ADDRESS3": "NOT AVAILABLE", "CITY": "BOSTON", "STATE": "MA", "PHONE": "NOT AVAILABLE", "LATITUDE": 42.354643, "LONGITUDE": -71.056201, "MATCH_STAT": "OK", "PLACEMENT": "NOT AVAILABLE", "CENSUS_COD": "250250701001035", "BUSINESS_N": "Self-Serve Drop Box", "ZIP": "02110" }, "geometry": { "type": "Point", "coordinates": [ -71.0562009998, 42.3546430002 ] } },
{ "type": "Feature", "properties": { "OBJECTID": 48838, "FEATURE_ID": 26352.0, "NAME": "UPS DROP BOX", "ADDRESS": "100 SUMMER ST", "ADDRESS2": "NOT AVAILABLE", "ADDRESS3": "NOT AVAILABLE", "CITY": "BOSTON", "STATE": "MA", "PHONE": "NOT AVAILABLE", "LATITUDE": 42.353741, "LONGITUDE": -71.057946, "MATCH_STAT": "OK", "PLACEMENT": "NOT AVAILABLE", "CENSUS_COD": "250250701001028", "BUSINESS_N": "Self-Serve Drop Box", "ZIP": "02110" }, "geometry": { "type": "Point", "coordinates": [ -71.0579459997, 42.3537410003 ] } },
{ "type": "Feature", "properties": { "OBJECTID": 48839, "FEATURE_ID": 26353.0, "NAME": "UPS DROP BOX", "ADDRESS": "21 CUSTOM HOUSE ST", "ADDRESS2": "NOT AVAILABLE", "ADDRESS3": "NOT AVAILABLE", "CITY": "BOSTON", "STATE": "MA", "PHONE": "(617) 573-0005", "LATITUDE": 42.35803, "LONGITUDE": -71.052903, "MATCH_STAT": "OK", "PLACEMENT": "NOT AVAILABLE", "CENSUS_COD": "250250701001003", "BUSINESS_N": "Self-Serve Drop Box", "ZIP": "02110" }, "geometry": { "type": "Point", "coordinates": [ -71.0529029996, 42.3580300003 ] } },
{ "type": "Feature", "properties": { "OBJECTID": 48840, "FEATURE_ID": 26354.0, "NAME": "UPS DROP BOX", "ADDRESS": "2 OLIVER ST", "ADDRESS2": "NOT AVAILABLE", "ADDRESS3": "NOT AVAILABLE", "CITY": "BOSTON", "STATE": "MA", "PHONE": "(617) 573-0005", "LATITUDE": 42.357269, "LONGITUDE": -71.054755, "MATCH_STAT": "OK", "PLACEMENT": "NOT AVAILABLE", "CENSUS_COD": "250250701001010", "BUSINESS_N": "Self-Serve Drop Box", "ZIP": "02110" }, "geometry": { "type": "Point", "coordinates": [ -71.0547549996, 42.3572690001 ] } },
{ "type": "Feature", "properties": { "OBJECTID": 48841, "FEATURE_ID": 26355.0, "NAME": "UPS DROP BOX", "ADDRESS": "66 LONG WHARF", "ADDRESS2": "NOT AVAILABLE", "ADDRESS3": "NOT AVAILABLE", "CITY": "BOSTON", "STATE": "MA", "PHONE": "(617) 573-0005", "LATITUDE": 42.360124, "LONGITUDE": -71.04878, "MATCH_STAT": "OK", "PLACEMENT": "NOT AVAILABLE", "CENSUS_COD": "250250303001013", "BUSINESS_N": "Self-Serve Drop Box", "ZIP": "02110" }, "geometry": { "type": "Point", "coordinates": [ -71.0487800001, 42.3601240001 ] } },
{ "type": "Feature", "properties": { "OBJECTID": 48842, "FEATURE_ID": 26356.0, "NAME": "UPS DROP BOX", "ADDRESS": "265 FRANKLIN ST", "ADDRESS2": "NOT AVAILABLE", "ADDRESS3": "NOT AVAILABLE", "CITY": "BOSTON", "STATE": "MA", "PHONE": "(617) 573-0005", "LATITUDE": 42.356513, "LONGITUDE": -71.053906, "MATCH_STAT": "OK", "PLACEMENT": "NOT AVAILABLE", "CENSUS_COD": "250250701001012", "BUSINESS_N": "Self-Serve Drop Box", "ZIP": "02110" }, "geometry": { "type": "Point", "coordinates": [ -71.0539060001, 42.3565129999 ] } },
{ "type": "Feature", "properties": { "OBJECTID": 48843, "FEATURE_ID": 26357.0, "NAME": "UPS DROP BOX", "ADDRESS": "260 FRANKLIN ST", "ADDRESS2": "NOT AVAILABLE", "ADDRESS3": "NOT AVAILABLE", "CITY": "BOSTON", "STATE": "MA", "PHONE": "(617) 573-0005", "LATITUDE": 42.356568, "LONGITUDE": -71.053939, "MATCH_STAT": "OK", "PLACEMENT": "NOT AVAILABLE", "CENSUS_COD": "250250701001010", "BUSINESS_N": "Self-Serve Drop Box", "ZIP": "02110" }, "geometry": { "type": "Point", "coordinates": [ -71.0539389997, 42.3565679998 ] } },
{ "type": "Feature", "properties": { "OBJECTID": 48844, "FEATURE_ID": 26358.0, "NAME": "UPS DROP BOX", "ADDRESS": "1 INTERNATIONAL PL", "ADDRESS2": "NOT AVAILABLE", "ADDRESS3": "NOT AVAILABLE", "CITY": "BOSTON", "STATE": "MA", "PHONE": "(617) 573-0005", "LATITUDE": 42.35614, "LONGITUDE": -71.052481, "MATCH_STAT": "OK", "PLACEMENT": "NOT AVAILABLE", "CENSUS_COD": "250250701001017", "BUSINESS_N": "Self-Serve Drop Box", "ZIP": "02110" }, "geometry": { "type": "Point", "coordinates": [ -71.0524809998, 42.35614 ] } },
{ "type": "Feature", "properties": { "OBJECTID": 48845, "FEATURE_ID": 26359.0, "NAME": "UPS DROP BOX", "ADDRESS": "225 FRANKLIN ST", "ADDRESS2": "NOT AVAILABLE", "ADDRESS3": "NOT AVAILABLE", "CITY": "BOSTON", "STATE": "MA", "PHONE": "(617) 573-0005", "LATITUDE": 42.356186, "LONGITUDE": -71.054575, "MATCH_STAT": "OK", "PLACEMENT": "NOT AVAILABLE", "CENSUS_COD": "250250701001020", "BUSINESS_N": "Self-Serve Drop Box", "ZIP": "02110" }, "geometry": { "type": "Point", "coordinates": [ -71.0545749997, 42.3561860001 ] } },
{ "type": "Feature", "properties": { "OBJECTID": 48846, "FEATURE_ID": 26360.0, "NAME": "UPS DROP BOX", "ADDRESS": "2 CENTER PLAZA", "ADDRESS2": "NOT AVAILABLE", "ADDRESS3": "NOT AVAILABLE", "CITY": "BOSTON", "STATE": "MA", "PHONE": "(617) 573-0005", "LATITUDE": 42.359693, "LONGITUDE": -71.061372, "MATCH_STAT": "OK", "PLACEMENT": "NOT AVAILABLE", "CENSUS_COD": "250250303003017", "BUSINESS_N": "Self-Serve Drop Box", "ZIP": "02108" }, "geometry": { "type": "Point", "coordinates": [ -71.0613719999, 42.3596929997 ] } },
{ "type": "Feature", "properties": { "OBJECTID": 48847, "FEATURE_ID": 26361.0, "NAME": "UPS DROP BOX", "ADDRESS": "45 SCHOOL ST", "ADDRESS2": "NOT AVAILABLE", "ADDRESS3": "NOT AVAILABLE", "CITY": "BOSTON", "STATE": "MA", "PHONE": "(617) 573-0005", "LATITUDE": 42.357751, "LONGITUDE": -71.059338, "MATCH_STAT": "OK", "PLACEMENT": "NOT AVAILABLE", "CENSUS_COD": "250250303003016", "BUSINESS_N": "Self-Serve Drop Box", "ZIP": "02108" }, "geometry": { "type": "Point", "coordinates": [ -71.0593380003, 42.357751 ] } },
{ "type": "Feature", "properties": { "OBJECTID": 48848, "FEATURE_ID": 26362.0, "NAME": "UPS DROP BOX", "ADDRESS": "185 FRANKLIN ST", "ADDRESS2": "NOT AVAILABLE", "ADDRESS3": "NOT AVAILABLE", "CITY": "BOSTON", "STATE": "MA", "PHONE": "(617) 573-0005", "LATITUDE": 42.355674, "LONGITUDE": -71.055575, "MATCH_STAT": "OK", "PLACEMENT": "NOT AVAILABLE", "CENSUS_COD": "250250701001030", "BUSINESS_N": "Self-Serve Drop Box", "ZIP": "02110" }, "geometry": { "type": "Point", "coordinates": [ -71.0555749998, 42.3556740002 ] } },
{ "type": "Feature", "properties": { "OBJECTID": 48849, "FEATURE_ID": 26363.0, "NAME": "UPS DROP BOX", "ADDRESS": "77 N WASHINGTON ST", "ADDRESS2": "NOT AVAILABLE", "ADDRESS3": "NOT AVAILABLE", "CITY": "BOSTON", "STATE": "MA", "PHONE": "(617) 573-0005", "LATITUDE": 42.365068, "LONGITUDE": -71.058318, "MATCH_STAT": "OK", "PLACEMENT": "NOT AVAILABLE", "CENSUS_COD": "250250302001006", "BUSINESS_N": "Self-Serve Drop Box", "ZIP": "02113" }, "geometry": { "type": "Point", "coordinates": [ -71.0583180001, 42.3650680002 ] } },
{ "type": "Feature", "properties": { "OBJECTID": 48850, "FEATURE_ID": 26364.0, "NAME": "UPS DROP BOX", "ADDRESS": "73 TREMONT ST", "ADDRESS2": "NOT AVAILABLE", "ADDRESS3": "NOT AVAILABLE", "CITY": "BOSTON", "STATE": "MA", "PHONE": "(617) 573-0005", "LATITUDE": 42.357903, "LONGITUDE": -71.060575, "MATCH_STAT": "OK", "PLACEMENT": "NOT AVAILABLE", "CENSUS_COD": "250250701003003", "BUSINESS_N": "Self-Serve Drop Box", "ZIP": "02108" }, "geometry": { "type": "Point", "coordinates": [ -71.0605750002, 42.3579030002 ] } },
{ "type": "Feature", "properties": { "OBJECTID": 48851, "FEATURE_ID": 26365.0, "NAME": "UPS DROP BOX", "ADDRESS": "125 HIGH ST", "ADDRESS2": "NOT AVAILABLE", "ADDRESS3": "NOT AVAILABLE", "CITY": "BOSTON", "STATE": "MA", "PHONE": "NOT AVAILABLE", "LATITUDE": 42.355243, "LONGITUDE": -71.053935, "MATCH_STAT": "OK", "PLACEMENT": "NOT AVAILABLE", "CENSUS_COD": "250250701001019", "BUSINESS_N": "Self-Serve Drop Box", "ZIP": "02110" }, "geometry": { "type": "Point", "coordinates": [ -71.0539350004, 42.3552429997 ] } },
{ "type": "Feature", "properties": { "OBJECTID": 48852, "FEATURE_ID": 26366.0, "NAME": "UPS DROP BOX", "ADDRESS": "125 HIGH ST", "ADDRESS2": "NOT AVAILABLE", "ADDRESS3": "NOT AVAILABLE", "CITY": "BOSTON", "STATE": "MA", "PHONE": "NOT AVAILABLE", "LATITUDE": 42.355243, "LONGITUDE": -71.053935, "MATCH_STAT": "OK", "PLACEMENT": "NOT AVAILABLE", "CENSUS_COD": "250250701001019", "BUSINESS_N": "Self-Serve Drop Box", "ZIP": "02110" }, "geometry": { "type": "Point", "coordinates": [ -71.0539350004, 42.3552429997 ] } },
{ "type": "Feature", "properties": { "OBJECTID": 48853, "FEATURE_ID": 26367.0, "NAME": "UPS DROP BOX", "ADDRESS": "101 TREMONT ST", "ADDRESS2": "NOT AVAILABLE", "ADDRESS3": "NOT AVAILABLE", "CITY": "BOSTON", "STATE": "MA", "PHONE": "NOT AVAILABLE", "LATITUDE": 42.357472, "LONGITUDE": -71.06099, "MATCH_STAT": "OK", "PLACEMENT": "NOT AVAILABLE", "CENSUS_COD": "250250701003003", "BUSINESS_N": "Self-Serve Drop Box", "ZIP": "02108" }, "geometry": { "type": "Point", "coordinates": [ -71.0609900003, 42.3574719997 ] } },
{ "type": "Feature", "properties": { "OBJECTID": 48854, "FEATURE_ID": 26368.0, "NAME": "UPS DROP BOX", "ADDRESS": "99 HIGH ST", "ADDRESS2": "NOT AVAILABLE", "ADDRESS3": "NOT AVAILABLE", "CITY": "BOSTON", "STATE": "MA", "PHONE": "NOT AVAILABLE", "LATITUDE": 42.354507, "LONGITUDE": -71.0547, "MATCH_STAT": "OK", "PLACEMENT": "NOT AVAILABLE", "CENSUS_COD": "250250701001033", "BUSINESS_N": "Self-Serve Drop Box", "ZIP": "02110" }, "geometry": { "type": "Point", "coordinates": [ -71.0547, 42.3545070001 ] } },
{ "type": "Feature", "properties": { "OBJECTID": 48855, "FEATURE_ID": 26369.0, "NAME": "UPS DROP BOX", "ADDRESS": "40 BROAD ST", "ADDRESS2": "NOT AVAILABLE", "ADDRESS3": "NOT AVAILABLE", "CITY": "BOSTON", "STATE": "MA", "PHONE": "(617) 573-0005", "LATITUDE": 42.358354, "LONGITUDE": -71.054157, "MATCH_STAT": "OK", "PLACEMENT": "NOT AVAILABLE", "CENSUS_COD": "250250303002019", "BUSINESS_N": "Self-Serve Drop Box", "ZIP": "02109" }, "geometry": { "type": "Point", "coordinates": [ -71.0541570001, 42.3583540001 ] } },
{ "type": "Feature", "properties": { "OBJECTID": 48856, "FEATURE_ID": 26370.0, "NAME": "UPS DROP BOX", "ADDRESS": "470 ATLANTIC AVE", "ADDRESS2": "NOT AVAILABLE", "ADDRESS3": "NOT AVAILABLE", "CITY": "BOSTON", "STATE": "MA", "PHONE": "(617) 573-0005", "LATITUDE": 42.354265, "LONGITUDE": -71.052194, "MATCH_STAT": "OK", "PLACEMENT": "NOT AVAILABLE", "CENSUS_COD": "250250701001051", "BUSINESS_N": "Self-Serv Drop Box", "ZIP": "02110" }, "geometry": { "type": "Point", "coordinates": [ -71.0521939998, 42.3542649997 ] } },
{ "type": "Feature", "properties": { "OBJECTID": 48857, "FEATURE_ID": 26371.0, "NAME": "UPS DROP BOX", "ADDRESS": "272 CONGRESS ST", "ADDRESS2": "NOT AVAILABLE", "ADDRESS3": "NOT AVAILABLE", "CITY": "BOSTON", "STATE": "MA", "PHONE": "NOT AVAILABLE", "LATITUDE": 42.353333, "LONGITUDE": -71.053208, "MATCH_STAT": "OK", "PLACEMENT": "NOT AVAILABLE", "CENSUS_COD": "250250701001054", "BUSINESS_N": "Self-Serve Drop Box", "ZIP": "02110" }, "geometry": { "type": "Point", "coordinates": [ -71.0532080001, 42.3533329999 ] } },
{ "type": "Feature", "properties": { "OBJECTID": 48858, "FEATURE_ID": 26372.0, "NAME": "UPS DROP BOX", "ADDRESS": "600 ATLANTIC AVE", "ADDRESS2": "NOT AVAILABLE", "ADDRESS3": "NOT AVAILABLE", "CITY": "BOSTON", "STATE": "MA", "PHONE": "NOT AVAILABLE", "LATITUDE": 42.352911, "LONGITUDE": -71.054959, "MATCH_STAT": "OK", "PLACEMENT": "NOT AVAILABLE", "CENSUS_COD": "250250701001056", "BUSINESS_N": "Self-Serve Drop Box", "ZIP": "02210" }, "geometry": { "type": "Point", "coordinates": [ -71.0549589998, 42.352911 ] } },
{ "type": "Feature", "properties": { "OBJECTID": 48859, "FEATURE_ID": 26373.0, "NAME": "UPS DROP BOX", "ADDRESS": "1 FINANCIAL CTR", "ADDRESS2": "NOT AVAILABLE", "ADDRESS3": "NOT AVAILABLE", "CITY": "BOSTON", "STATE": "MA", "PHONE": "NOT AVAILABLE", "LATITUDE": 42.352509, "LONGITUDE": -71.05615, "MATCH_STAT": "OK", "PLACEMENT": "NOT AVAILABLE", "CENSUS_COD": "250250701001063", "BUSINESS_N": "Self-Serve Drop Box", "ZIP": "02111" }, "geometry": { "type": "Point", "coordinates": [ -71.0561499997, 42.3525090003 ] } },
{ "type": "Feature", "properties": { "OBJECTID": 48860, "FEATURE_ID": 26374.0, "NAME": "UPS DROP BOX", "ADDRESS": "200 STATE ST", "ADDRESS2": "NOT AVAILABLE", "ADDRESS3": "NOT AVAILABLE", "CITY": "BOSTON", "STATE": "MA", "PHONE": "NOT AVAILABLE", "LATITUDE": 42.359416, "LONGITUDE": -71.053291, "MATCH_STAT": "OK", "PLACEMENT": "NOT AVAILABLE", "CENSUS_COD": "250250303002008", "BUSINESS_N": "Self-Serve Drop Box", "ZIP": "02109" }, "geometry": { "type": "Point", "coordinates": [ -71.0532909999, 42.3594160001 ] } },
{ "type": "Feature", "properties": { "OBJECTID": 48862, "FEATURE_ID": 26376.0, "NAME": "UPS DROP BOX", "ADDRESS": "STATE HOUSE", "ADDRESS2": "NOT AVAILABLE", "ADDRESS3": "NOT AVAILABLE", "CITY": "BOSTON", "STATE": "MA", "PHONE": "NOT AVAILABLE", "LATITUDE": 42.362211, "LONGITUDE": -71.053335, "MATCH_STAT": "ZIP CENTROID", "PLACEMENT": "\\NPLACEMENT: ZIP CENTROID", "CENSUS_COD": "250250303002002", "BUSINESS_N": "Self-Serve Drop Box", "ZIP": "02109" }, "geometry": { "type": "Point", "coordinates": [ -71.0533350003, 42.3622109998 ] } },
{ "type": "Feature", "properties": { "OBJECTID": 48863, "FEATURE_ID": 26377.0, "NAME": "UPS DROP BOX", "ADDRESS": "601 CONGRESS ST", "ADDRESS2": "NOT AVAILABLE", "ADDRESS3": "NOT AVAILABLE", "CITY": "BOSTON", "STATE": "MA", "PHONE": "NOT AVAILABLE", "LATITUDE": 42.348828, "LONGITUDE": -71.042572, "MATCH_STAT": "OK", "PLACEMENT": "NOT AVAILABLE", "CENSUS_COD": "250250606001028", "BUSINESS_N": "Manulife", "ZIP": "02210" }, "geometry": { "type": "Point", "coordinates": [ -71.0425720001, 42.3488279997 ] } },
{ "type": "Feature", "properties": { "OBJECTID": 48864, "FEATURE_ID": 26378.0, "NAME": "UPS DROP BOX", "ADDRESS": "745 ATLANTIC AVE", "ADDRESS2": "NOT AVAILABLE", "ADDRESS3": "NOT AVAILABLE", "CITY": "BOSTON", "STATE": "MA", "PHONE": "NOT AVAILABLE", "LATITUDE": 42.350357, "LONGITUDE": -71.056643, "MATCH_STAT": "OK", "PLACEMENT": "NOT AVAILABLE", "CENSUS_COD": "250250701001082", "BUSINESS_N": "Self-Serve Drop Box", "ZIP": "02111" }, "geometry": { "type": "Point", "coordinates": [ -71.0566429996, 42.3503570002 ] } },
{ "type": "Feature", "properties": { "OBJECTID": 48865, "FEATURE_ID": 26379.0, "NAME": "UPS DROP BOX", "ADDRESS": "25 THOMPSON PL", "ADDRESS2": "NOT AVAILABLE", "ADDRESS3": "NOT AVAILABLE", "CITY": "BOSTON", "STATE": "MA", "PHONE": "NOT AVAILABLE", "LATITUDE": 42.359688, "LONGITUDE": -71.068291, "MATCH_STAT": "OK", "PLACEMENT": "NOT AVAILABLE", "CENSUS_COD": "250250202002002", "BUSINESS_N": "Self-Serve Drop Box", "ZIP": "02114" }, "geometry": { "type": "Point", "coordinates": [ -71.0682910003, 42.359688 ] } },
{ "type": "Feature", "properties": { "OBJECTID": 48866, "FEATURE_ID": 26380.0, "NAME": "UPS DROP BOX", "ADDRESS": "1 S STATION", "ADDRESS2": "NOT AVAILABLE", "ADDRESS3": "NOT AVAILABLE", "CITY": "BOSTON", "STATE": "MA", "PHONE": "(617) 573-0005", "LATITUDE": 42.332533, "LONGITUDE": -71.094528, "MATCH_STAT": "OK", "PLACEMENT": "NOT AVAILABLE", "CENSUS_COD": "250250103001016", "BUSINESS_N": "Self-Serve Drop Box", "ZIP": "02120" }, "geometry": { "type": "Point", "coordinates": [ -71.0945279996, 42.3325329999 ] } },
{ "type": "Feature", "properties": { "OBJECTID": 48867, "FEATURE_ID": 26381.0, "NAME": "UPS DROP BOX", "ADDRESS": "125 SUMMER ST", "ADDRESS2": "NOT AVAILABLE", "ADDRESS3": "NOT AVAILABLE", "CITY": "BOSTON", "STATE": "MA", "PHONE": "(617) 573-0005", "LATITUDE": 42.353344, "LONGITUDE": -71.057577, "MATCH_STAT": "OK", "PLACEMENT": "NOT AVAILABLE", "CENSUS_COD": "250250701001044", "BUSINESS_N": "Self-Serve Drop Box", "ZIP": "02110" }, "geometry": { "type": "Point", "coordinates": [ -71.0575769996, 42.3533440001 ] } },
{ "type": "Feature", "properties": { "OBJECTID": 48868, "FEATURE_ID": 26382.0, "NAME": "UPS DROP BOX", "ADDRESS": "175 FEDERAL ST", "ADDRESS2": "NOT AVAILABLE", "ADDRESS3": "NOT AVAILABLE", "CITY": "BOSTON", "STATE": "MA", "PHONE": "(617) 573-0005", "LATITUDE": 42.353985, "LONGITUDE": -71.056169, "MATCH_STAT": "OK", "PLACEMENT": "NOT AVAILABLE", "CENSUS_COD": "250250701001037", "BUSINESS_N": "Self-Serve Drop Box", "ZIP": "02110" }, "geometry": { "type": "Point", "coordinates": [ -71.056169, 42.3539850002 ] } },
{ "type": "Feature", "properties": { "OBJECTID": 48869, "FEATURE_ID": 26383.0, "NAME": "UPS DROP BOX", "ADDRESS": "155 FEDERAL ST", "ADDRESS2": "NOT AVAILABLE", "ADDRESS3": "NOT AVAILABLE", "CITY": "BOSTON", "STATE": "MA", "PHONE": "(617) 573-0005", "LATITUDE": 42.354281, "LONGITUDE": -71.056218, "MATCH_STAT": "OK", "PLACEMENT": "NOT AVAILABLE", "CENSUS_COD": "250250701001036", "BUSINESS_N": "Self-Serve Drop Box", "ZIP": "02110" }, "geometry": { "type": "Point", "coordinates": [ -71.0562180004, 42.3542809998 ] } },
{ "type": "Feature", "properties": { "OBJECTID": 48870, "FEATURE_ID": 26384.0, "NAME": "UPS DROP BOX", "ADDRESS": "133 FEDERAL ST", "ADDRESS2": "NOT AVAILABLE", "ADDRESS3": "NOT AVAILABLE", "CITY": "BOSTON", "STATE": "MA", "PHONE": "(617) 573-0005", "LATITUDE": 42.354534, "LONGITUDE": -71.056265, "MATCH_STAT": "OK", "PLACEMENT": "NOT AVAILABLE", "CENSUS_COD": "250250701001036", "BUSINESS_N": "Self-Serve Drop Box", "ZIP": "02110" }, "geometry": { "type": "Point", "coordinates": [ -71.0562650003, 42.3545340001 ] } },
{ "type": "Feature", "properties": { "OBJECTID": 48871, "FEATURE_ID": 26385.0, "NAME": "UPS DROP BOX", "ADDRESS": "2 DE LAFAYETTE AVE", "ADDRESS2": "NOT AVAILABLE", "ADDRESS3": "NOT AVAILABLE", "CITY": "BOSTON", "STATE": "MA", "PHONE": "(617) 573-0005", "LATITUDE": 42.353817, "LONGITUDE": -71.061862, "MATCH_STAT": "OK", "PLACEMENT": "NOT AVAILABLE", "CENSUS_COD": "250250701002007", "BUSINESS_N": "Self-Serve Drop Box", "ZIP": "02111" }, "geometry": { "type": "Point", "coordinates": [ -71.0618620003, 42.3538170003 ] } },
{ "type": "Feature", "properties": { "OBJECTID": 48872, "FEATURE_ID": 26386.0, "NAME": "UPS DROP BOX", "ADDRESS": "343 COMMERCIAL ST", "ADDRESS2": "NOT AVAILABLE", "ADDRESS3": "NOT AVAILABLE", "CITY": "BOSTON", "STATE": "MA", "PHONE": "(617) 573-0005", "LATITUDE": 42.36565, "LONGITUDE": -71.051123, "MATCH_STAT": "OK", "PLACEMENT": "NOT AVAILABLE", "CENSUS_COD": "250250305001009", "BUSINESS_N": "Self-Serve Drop Box", "ZIP": "02109" }, "geometry": { "type": "Point", "coordinates": [ -71.0511230004, 42.3656500001 ] } },
{ "type": "Feature", "properties": { "OBJECTID": 48873, "FEATURE_ID": 26387.0, "NAME": "UPS DROP BOX", "ADDRESS": "180 CANAL ST", "ADDRESS2": "NOT AVAILABLE", "ADDRESS3": "NOT AVAILABLE", "CITY": "BOSTON", "STATE": "MA", "PHONE": "(617) 573-0005", "LATITUDE": 42.365174, "LONGITUDE": -71.060826, "MATCH_STAT": "OK", "PLACEMENT": "NOT AVAILABLE", "CENSUS_COD": "250250203001020", "BUSINESS_N": "Self-Serve Drop Box", "ZIP": "02114" }, "geometry": { "type": "Point", "coordinates": [ -71.0608260003, 42.3651739999 ] } },
{ "type": "Feature", "properties": { "OBJECTID": 48875, "FEATURE_ID": 26389.0, "NAME": "UPS DROP BOX", "ADDRESS": "90 BLOSSOM ST", "ADDRESS2": "NOT AVAILABLE", "ADDRESS3": "NOT AVAILABLE", "CITY": "BOSTON", "STATE": "MA", "PHONE": "(617) 426-3039", "LATITUDE": 42.363854, "LONGITUDE": -71.067355, "MATCH_STAT": "OK", "PLACEMENT": "NOT AVAILABLE", "CENSUS_COD": "250250203001041", "BUSINESS_N": "Self-Serve Drop Box", "ZIP": "02114" }, "geometry": { "type": "Point", "coordinates": [ -71.0673549998, 42.363854 ] } },
{ "type": "Feature", "properties": { "OBJECTID": 48879, "FEATURE_ID": 26395.0, "NAME": "THE UPS STORE", "ADDRESS": "423 BROOKLINE AVE", "ADDRESS2": "NOT AVAILABLE", "ADDRESS3": "NOT AVAILABLE", "CITY": "BOSTON", "STATE": "MA", "PHONE": "(617) 738-3372", "LATITUDE": 42.338556, "LONGITUDE": -71.107744, "MATCH_STAT": "OK", "PLACEMENT": "NOT AVAILABLE", "CENSUS_COD": "250250810001003", "BUSINESS_N": "Not Available", "ZIP": "02215" }, "geometry": { "type": "Point", "coordinates": [ -71.1077439997, 42.338556 ] } },
{ "type": "Feature", "properties": { "OBJECTID": 48880, "FEATURE_ID": 26396.0, "NAME": "UPS DROP BOX", "ADDRESS": "4 BLACKFAN CIR", "ADDRESS2": "NOT AVAILABLE", "ADDRESS3": "NOT AVAILABLE", "CITY": "BOSTON", "STATE": "MA", "PHONE": "(617) 437-9303", "LATITUDE": 42.337848, "LONGITUDE": -71.105098, "MATCH_STAT": "OK", "PLACEMENT": "NOT AVAILABLE", "CENSUS_COD": "250250103002007", "BUSINESS_N": "Self-Serve Drop Box", "ZIP": "02115" }, "geometry": { "type": "Point", "coordinates": [ -71.1050980003, 42.3378480001 ] } },
{ "type": "Feature", "properties": { "OBJECTID": 48881, "FEATURE_ID": 26397.0, "NAME": "UPS DROP BOX", "ADDRESS": "1620 TREMONT ST", "ADDRESS2": "NOT AVAILABLE", "ADDRESS3": "NOT AVAILABLE", "CITY": "BOSTON", "STATE": "MA", "PHONE": "(617) 437-9303", "LATITUDE": 42.333675, "LONGITUDE": -71.103404, "MATCH_STAT": "OK", "PLACEMENT": "NOT AVAILABLE", "CENSUS_COD": "250250809003002", "BUSINESS_N": "Self-Serve Drop Box", "ZIP": "02120" }, "geometry": { "type": "Point", "coordinates": [ -71.1034039996, 42.3336750001 ] } },
{ "type": "Feature", "properties": { "OBJECTID": 48882, "FEATURE_ID": 26398.0, "NAME": "UPS DROP BOX", "ADDRESS": "364 BROOKLINE AVE", "ADDRESS2": "NOT AVAILABLE", "ADDRESS3": "NOT AVAILABLE", "CITY": "BOSTON", "STATE": "MA", "PHONE": "(617) 437-9303", "LATITUDE": 42.339549, "LONGITUDE": -71.106581, "MATCH_STAT": "OK", "PLACEMENT": "NOT AVAILABLE", "CENSUS_COD": "250250103002007", "BUSINESS_N": "Self-Serve Drop Box", "ZIP": "02215" }, "geometry": { "type": "Point", "coordinates": [ -71.1065810003, 42.3395489999 ] } },
{ "type": "Feature", "properties": { "OBJECTID": 48883, "FEATURE_ID": 26399.0, "NAME": "UPS DROP BOX", "ADDRESS": "10 VINING RD", "ADDRESS2": "NOT AVAILABLE", "ADDRESS3": "NOT AVAILABLE", "CITY": "BOSTON", "STATE": "MA", "PHONE": "(617) 437-9303", "LATITUDE": 42.335364, "LONGITUDE": -71.107934, "MATCH_STAT": "OK", "PLACEMENT": "NOT AVAILABLE", "CENSUS_COD": "250250810001013", "BUSINESS_N": "Self-Serve Drop Box", "ZIP": "02115" }, "geometry": { "type": "Point", "coordinates": [ -71.1079339996, 42.3353639999 ] } },
{ "type": "Feature", "properties": { "OBJECTID": 48884, "FEATURE_ID": 26400.0, "NAME": "UPS DROP BOX", "ADDRESS": "375 LONGWOOD AVE", "ADDRESS2": "NOT AVAILABLE", "ADDRESS3": "NOT AVAILABLE", "CITY": "BOSTON", "STATE": "MA", "PHONE": "(617) 437-9303", "LATITUDE": 42.339566, "LONGITUDE": -71.108332, "MATCH_STAT": "OK", "PLACEMENT": "NOT AVAILABLE", "CENSUS_COD": "250250103002010", "BUSINESS_N": "Self-Serve Drop Box", "ZIP": "02215" }, "geometry": { "type": "Point", "coordinates": [ -71.108332, 42.3395659998 ] } },
{ "type": "Feature", "properties": { "OBJECTID": 48885, "FEATURE_ID": 26401.0, "NAME": "UPS DROP BOX", "ADDRESS": "1 DEACONESS RD", "ADDRESS2": "NOT AVAILABLE", "ADDRESS3": "NOT AVAILABLE", "CITY": "BOSTON", "STATE": "MA", "PHONE": "(617) 437-9303", "LATITUDE": 42.33802, "LONGITUDE": -71.108427, "MATCH_STAT": "OK", "PLACEMENT": "NOT AVAILABLE", "CENSUS_COD": "250250810001009", "BUSINESS_N": "Self-Serve Drop Box", "ZIP": "02215" }, "geometry": { "type": "Point", "coordinates": [ -71.1084270004, 42.3380200002 ] } },
{ "type": "Feature", "properties": { "OBJECTID": 48886, "FEATURE_ID": 26402.0, "NAME": "UPS DROP BOX", "ADDRESS": "260 LONGWOOD AVE", "ADDRESS2": "NOT AVAILABLE", "ADDRESS3": "NOT AVAILABLE", "CITY": "BOSTON", "STATE": "MA", "PHONE": "(617) 437-9303", "LATITUDE": 42.337202, "LONGITUDE": -71.103734, "MATCH_STAT": "OK", "PLACEMENT": "NOT AVAILABLE", "CENSUS_COD": "250250810001000", "BUSINESS_N": "Self-Serve Drop Box", "ZIP": "02115" }, "geometry": { "type": "Point", "coordinates": [ -71.1037340002, 42.3372019999 ] } },
{ "type": "Feature", "properties": { "OBJECTID": 48887, "FEATURE_ID": 26403.0, "NAME": "UPS DROP BOX", "ADDRESS": "470 COMMONWEALTH AVE", "ADDRESS2": "NOT AVAILABLE", "ADDRESS3": "NOT AVAILABLE", "CITY": "BOSTON", "STATE": "MA", "PHONE": "(617) 437-9303", "LATITUDE": 42.348799, "LONGITUDE": -71.093382, "MATCH_STAT": "OK", "PLACEMENT": "NOT AVAILABLE", "CENSUS_COD": "250250101014005", "BUSINESS_N": "Self-Serve Drop Box", "ZIP": "02215" }, "geometry": { "type": "Point", "coordinates": [ -71.0933819999, 42.3487990003 ] } },
{ "type": "Feature", "properties": { "OBJECTID": 48888, "FEATURE_ID": 26404.0, "NAME": "UPS ALLIANCE LOCATION", "ADDRESS": "401 PARK DR", "ADDRESS2": "NOT AVAILABLE", "ADDRESS3": "NOT AVAILABLE", "CITY": "BOSTON", "STATE": "MA", "PHONE": "(617) 638-3292", "LATITUDE": 42.344869, "LONGITUDE": -71.104054, "MATCH_STAT": "OK", "PLACEMENT": "NOT AVAILABLE", "CENSUS_COD": "250250102021005", "BUSINESS_N": "Staples Aso 00083", "ZIP": "02215" }, "geometry": { "type": "Point", "coordinates": [ -71.1040539998, 42.3448690003 ] } },
{ "type": "Feature", "properties": { "OBJECTID": 48889, "FEATURE_ID": 26407.0, "NAME": "THE UPS STORE", "ADDRESS": "110 HUNTINGTON AVE", "ADDRESS2": "NOT AVAILABLE", "ADDRESS3": "NOT AVAILABLE", "CITY": "BOSTON", "STATE": "MA", "PHONE": "(617) 638-0095", "LATITUDE": 42.347022, "LONGITUDE": -71.079573, "MATCH_STAT": "OK", "PLACEMENT": "NOT AVAILABLE", "CENSUS_COD": "250250106002001", "BUSINESS_N": "Not Available", "ZIP": "02116" }, "geometry": { "type": "Point", "coordinates": [ -71.0795730003, 42.3470220002 ] } },
{ "type": "Feature", "properties": { "OBJECTID": 48891, "FEATURE_ID": 26409.0, "NAME": "THE UPS STORE", "ADDRESS": "398 COLUMBUS AVE", "ADDRESS2": "NOT AVAILABLE", "ADDRESS3": "NOT AVAILABLE", "CITY": "BOSTON", "STATE": "MA", "PHONE": "(617) 859-7780", "LATITUDE": 42.344753, "LONGITUDE": -71.076535, "MATCH_STAT": "OK", "PLACEMENT": "NOT AVAILABLE", "CENSUS_COD": "250250707002002", "BUSINESS_N": "Not Available", "ZIP": "02116" }, "geometry": { "type": "Point", "coordinates": [ -71.0765350004, 42.3447529998 ] } },
{ "type": "Feature", "properties": { "OBJECTID": 48892, "FEATURE_ID": 26410.0, "NAME": "THE UPS STORE", "ADDRESS": "1085 COMMONWEALTH AVE", "ADDRESS2": "NOT AVAILABLE", "ADDRESS3": "NOT AVAILABLE", "CITY": "BOSTON", "STATE": "MA", "PHONE": "(617) 254-7173", "LATITUDE": 42.352217, "LONGITUDE": -71.123847, "MATCH_STAT": "OK", "PLACEMENT": "NOT AVAILABLE", "CENSUS_COD": "250250008021008", "BUSINESS_N": "Not Available", "ZIP": "02215" }, "geometry": { "type": "Point", "coordinates": [ -71.123847, 42.3522170001 ] } },
{ "type": "Feature", "properties": { "OBJECTID": 48897, "FEATURE_ID": 26415.0, "NAME": "UPS DROP BOX", "ADDRESS": "855 BOYLSTON ST", "ADDRESS2": "NOT AVAILABLE", "ADDRESS3": "NOT AVAILABLE", "CITY": "BOSTON", "STATE": "MA", "PHONE": "(617) 868-5055", "LATITUDE": 42.348595, "LONGITUDE": -71.082989, "MATCH_STAT": "OK", "PLACEMENT": "NOT AVAILABLE", "CENSUS_COD": "250250107004001", "BUSINESS_N": "Self-Serve Drop Box", "ZIP": "02116" }, "geometry": { "type": "Point", "coordinates": [ -71.0829889996, 42.348595 ] } },
{ "type": "Feature", "properties": { "OBJECTID": 48898, "FEATURE_ID": 26416.0, "NAME": "UPS DROP BOX", "ADDRESS": "116 HUNTINGTON AVE", "ADDRESS2": "NOT AVAILABLE", "ADDRESS3": "NOT AVAILABLE", "CITY": "BOSTON", "STATE": "MA", "PHONE": "(617) 868-5055", "LATITUDE": 42.346454, "LONGITUDE": -71.080306, "MATCH_STAT": "OK", "PLACEMENT": "NOT AVAILABLE", "CENSUS_COD": "250250106002002", "BUSINESS_N": "Self-Serve Drop Box", "ZIP": "02116" }, "geometry": { "type": "Point", "coordinates": [ -71.0803060004, 42.3464540001 ] } },
{ "type": "Feature", "properties": { "OBJECTID": 48899, "FEATURE_ID": 26417.0, "NAME": "UPS DROP BOX", "ADDRESS": "800 BOYLSTON ST", "ADDRESS2": "NOT AVAILABLE", "ADDRESS3": "NOT AVAILABLE", "CITY": "BOSTON", "STATE": "MA", "PHONE": "(617) 868-5055", "LATITUDE": 42.348848, "LONGITUDE": -71.081815, "MATCH_STAT": "OK", "PLACEMENT": "NOT AVAILABLE", "CENSUS_COD": "250250106001006", "BUSINESS_N": "Self-Serve Drop Box", "ZIP": "02199" }, "geometry": { "type": "Point", "coordinates": [ -71.0818150003, 42.3488479999 ] } },
{ "type": "Feature", "properties": { "OBJECTID": 48900, "FEATURE_ID": 26418.0, "NAME": "UPS DROP BOX", "ADDRESS": "1 BOSTON PL", "ADDRESS2": "NOT AVAILABLE", "ADDRESS3": "NOT AVAILABLE", "CITY": "BOSTON", "STATE": "MA", "PHONE": "(617) 868-5055", "LATITUDE": 42.35894, "LONGITUDE": -71.058094, "MATCH_STAT": "OK", "PLACEMENT": "NOT AVAILABLE", "CENSUS_COD": "250250303003014", "BUSINESS_N": "Self-Serve Drop Box", "ZIP": "02108" }, "geometry": { "type": "Point", "coordinates": [ -71.0580939998, 42.3589399998 ] } },
{ "type": "Feature", "properties": { "OBJECTID": 48901, "FEATURE_ID": 26419.0, "NAME": "UPS DROP BOX", "ADDRESS": "745 BOYLSTON ST", "ADDRESS2": "NOT AVAILABLE", "ADDRESS3": "NOT AVAILABLE", "CITY": "BOSTON", "STATE": "MA", "PHONE": "NOT AVAILABLE", "LATITUDE": 42.34927, "LONGITUDE": -71.080494, "MATCH_STAT": "OK", "PLACEMENT": "NOT AVAILABLE", "CENSUS_COD": "250250107004000", "BUSINESS_N": "Self-Serve Drop Box", "ZIP": "02116" }, "geometry": { "type": "Point", "coordinates": [ -71.0804939999, 42.3492699999 ] } },
{ "type": "Feature", "properties": { "OBJECTID": 48902, "FEATURE_ID": 26435.0, "NAME": "THE UPS STORE", "ADDRESS": "304 NEWBURY ST", "ADDRESS2": "NOT AVAILABLE", "ADDRESS3": "NOT AVAILABLE", "CITY": "BOSTON", "STATE": "MA", "PHONE": "(617) 437-9303", "LATITUDE": 42.348911, "LONGITUDE": -71.084987, "MATCH_STAT": "OK", "PLACEMENT": "NOT AVAILABLE", "CENSUS_COD": "250250107005006", "BUSINESS_N": "Not Available", "ZIP": "02115" }, "geometry": { "type": "Point", "coordinates": [ -71.0849870001, 42.3489109999 ] } },
{ "type": "Feature", "properties": { "OBJECTID": 48903, "FEATURE_ID": 26436.0, "NAME": "THE UPS STORE", "ADDRESS": "263 HUNTINGTON AVE", "ADDRESS2": "NOT AVAILABLE", "ADDRESS3": "NOT AVAILABLE", "CITY": "BOSTON", "STATE": "MA", "PHONE": "(617) 437-8818", "LATITUDE": 42.342289, "LONGITUDE": -71.085698, "MATCH_STAT": "OK", "PLACEMENT": "NOT AVAILABLE", "CENSUS_COD": "250250104013000", "BUSINESS_N": "Not Available", "ZIP": "02115" }, "geometry": { "type": "Point", "coordinates": [ -71.0856979996, 42.3422889997 ] } },
{ "type": "Feature", "properties": { "OBJECTID": 48904, "FEATURE_ID": 26438.0, "NAME": "UPS DROP BOX", "ADDRESS": "750 WASHINGTON ST", "ADDRESS2": "NOT AVAILABLE", "ADDRESS3": "NOT AVAILABLE", "CITY": "BOSTON", "STATE": "MA", "PHONE": "NOT AVAILABLE", "LATITUDE": 42.35028, "LONGITUDE": -71.06327, "MATCH_STAT": "OK", "PLACEMENT": "NOT AVAILABLE", "CENSUS_COD": "250250702001005", "BUSINESS_N": "Self-Serve Drop Box", "ZIP": "02111" }, "geometry": { "type": "Point", "coordinates": [ -71.06327, 42.3502800002 ] } },
{ "type": "Feature", "properties": { "OBJECTID": 48905, "FEATURE_ID": 26439.0, "NAME": "UPS DROP BOX", "ADDRESS": "25 HARVARD ST", "ADDRESS2": "NOT AVAILABLE", "ADDRESS3": "NOT AVAILABLE", "CITY": "BOSTON", "STATE": "MA", "PHONE": "NOT AVAILABLE", "LATITUDE": 42.349771, "LONGITUDE": -71.062043, "MATCH_STAT": "OK", "PLACEMENT": "NOT AVAILABLE", "CENSUS_COD": "250250702001005", "BUSINESS_N": "Self-Serve Drop Box", "ZIP": "02111" }, "geometry": { "type": "Point", "coordinates": [ -71.0620430001, 42.3497710001 ] } },
{ "type": "Feature", "properties": { "OBJECTID": 48906, "FEATURE_ID": 26440.0, "NAME": "UPS DROP BOX", "ADDRESS": "35 KNEELAND ST", "ADDRESS2": "NOT AVAILABLE", "ADDRESS3": "NOT AVAILABLE", "CITY": "BOSTON", "STATE": "MA", "PHONE": "NOT AVAILABLE", "LATITUDE": 42.350667, "LONGITUDE": -71.061875, "MATCH_STAT": "OK", "PLACEMENT": "NOT AVAILABLE", "CENSUS_COD": "250250702001005", "BUSINESS_N": "Self-Serve Drop Box", "ZIP": "02111" }, "geometry": { "type": "Point", "coordinates": [ -71.0618749999, 42.3506669997 ] } },
{ "type": "Feature", "properties": { "OBJECTID": 48907, "FEATURE_ID": 26441.0, "NAME": "UPS DROP BOX", "ADDRESS": "75 KNEELAND ST", "ADDRESS2": "NOT AVAILABLE", "ADDRESS3": "NOT AVAILABLE", "CITY": "BOSTON", "STATE": "MA", "PHONE": "NOT AVAILABLE", "LATITUDE": 42.350322, "LONGITUDE": -71.060543, "MATCH_STAT": "OK", "PLACEMENT": "NOT AVAILABLE", "CENSUS_COD": "250250702001009", "BUSINESS_N": "Self-Serve Drop Box", "ZIP": "02111" }, "geometry": { "type": "Point", "coordinates": [ -71.0605430004, 42.3503219999 ] } },
{ "type": "Feature", "properties": { "OBJECTID": 48910, "FEATURE_ID": 26444.0, "NAME": "UPS DROP BOX", "ADDRESS": "131 DARTMOUTH ST", "ADDRESS2": "NOT AVAILABLE", "ADDRESS3": "NOT AVAILABLE", "CITY": "BOSTON", "STATE": "MA", "PHONE": "(617) 437-9303", "LATITUDE": 42.346718, "LONGITUDE": -71.075622, "MATCH_STAT": "OK", "PLACEMENT": "NOT AVAILABLE", "CENSUS_COD": "250250707001005", "BUSINESS_N": "Self-Serve Drop Box", "ZIP": "02116" }, "geometry": { "type": "Point", "coordinates": [ -71.0756220004, 42.3467179999 ] } },
{ "type": "Feature", "properties": { "OBJECTID": 48911, "FEATURE_ID": 26445.0, "NAME": "UPS DROP BOX", "ADDRESS": "1 COPLEY PL", "ADDRESS2": "NOT AVAILABLE", "ADDRESS3": "NOT AVAILABLE", "CITY": "BOSTON", "STATE": "MA", "PHONE": "(617) 437-9303", "LATITUDE": 42.346734, "LONGITUDE": -71.076704, "MATCH_STAT": "OK", "PLACEMENT": "NOT AVAILABLE", "CENSUS_COD": "250250707001009", "BUSINESS_N": "Self-Serve Drop Box", "ZIP": "02116" }, "geometry": { "type": "Point", "coordinates": [ -71.0767039996, 42.3467339999 ] } },
{ "type": "Feature", "properties": { "OBJECTID": 48912, "FEATURE_ID": 26446.0, "NAME": "UPS DROP BOX", "ADDRESS": "307 DORCHESTER AVE", "ADDRESS2": "NOT AVAILABLE", "ADDRESS3": "NOT AVAILABLE", "CITY": "BOSTON", "STATE": "MA", "PHONE": "(617) 437-9303", "LATITUDE": 42.336893, "LONGITUDE": -71.057091, "MATCH_STAT": "OK", "PLACEMENT": "NOT AVAILABLE", "CENSUS_COD": "250250612002001", "BUSINESS_N": "Self-Serv Drop Box", "ZIP": "02127" }, "geometry": { "type": "Point", "coordinates": [ -71.0570910003, 42.3368929998 ] } },
{ "type": "Feature", "properties": { "OBJECTID": 48913, "FEATURE_ID": 26447.0, "NAME": "UPS DROP BOX", "ADDRESS": "200 CLARENDON ST", "ADDRESS2": "NOT AVAILABLE", "ADDRESS3": "NOT AVAILABLE", "CITY": "BOSTON", "STATE": "MA", "PHONE": "NOT AVAILABLE", "LATITUDE": 42.349103, "LONGITUDE": -71.074464, "MATCH_STAT": "OK", "PLACEMENT": "NOT AVAILABLE", "CENSUS_COD": "250250106001001", "BUSINESS_N": "Self-Serve Drop Box Floor T32", "ZIP": "02116" }, "geometry": { "type": "Point", "coordinates": [ -71.0744640001, 42.3491029998 ] } },
{ "type": "Feature", "properties": { "OBJECTID": 48914, "FEATURE_ID": 26448.0, "NAME": "UPS DROP BOX", "ADDRESS": "197 CLARENDON ST C1", "ADDRESS2": "NOT AVAILABLE", "ADDRESS3": "NOT AVAILABLE", "CITY": "BOSTON", "STATE": "MA", "PHONE": "NOT AVAILABLE", "LATITUDE": 42.349807, "LONGITUDE": -71.074753, "MATCH_STAT": "OK", "PLACEMENT": "NOT AVAILABLE", "CENSUS_COD": "250250106001001", "BUSINESS_N": "Self-Serve Drop Box", "ZIP": "02116" }, "geometry": { "type": "Point", "coordinates": [ -71.0747529998, 42.3498069999 ] } },
{ "type": "Feature", "properties": { "OBJECTID": 48915, "FEATURE_ID": 26449.0, "NAME": "UPS DROP BOX", "ADDRESS": "200 CLARENDON ST", "ADDRESS2": "NOT AVAILABLE", "ADDRESS3": "NOT AVAILABLE", "CITY": "BOSTON", "STATE": "MA", "PHONE": "NOT AVAILABLE", "LATITUDE": 42.349103, "LONGITUDE": -71.074464, "MATCH_STAT": "OK", "PLACEMENT": "NOT AVAILABLE", "CENSUS_COD": "250250106001001", "BUSINESS_N": "Self-Serve Drop Box", "ZIP": "02116" }, "geometry": { "type": "Point", "coordinates": [ -71.0744640001, 42.3491029998 ] } },
{ "type": "Feature", "properties": { "OBJECTID": 48916, "FEATURE_ID": 26450.0, "NAME": "UPS DROP BOX", "ADDRESS": "200 BERKELEY ST BB", "ADDRESS2": "NOT AVAILABLE", "ADDRESS3": "NOT AVAILABLE", "CITY": "BOSTON", "STATE": "MA", "PHONE": "NOT AVAILABLE", "LATITUDE": 42.380052, "LONGITUDE": -71.072762, "MATCH_STAT": "OK", "PLACEMENT": "NOT AVAILABLE", "CENSUS_COD": "250250406001002", "BUSINESS_N": "Self-Serve Drop Box", "ZIP": "02129" }, "geometry": { "type": "Point", "coordinates": [ -71.0727619999, 42.3800520001 ] } },
{ "type": "Feature", "properties": { "OBJECTID": 48917, "FEATURE_ID": 26451.0, "NAME": "UPS DROP BOX", "ADDRESS": "200 BERKELEY ST B3", "ADDRESS2": "NOT AVAILABLE", "ADDRESS3": "NOT AVAILABLE", "CITY": "BOSTON", "STATE": "MA", "PHONE": "NOT AVAILABLE", "LATITUDE": 42.350311, "LONGITUDE": -71.072657, "MATCH_STAT": "OK", "PLACEMENT": "NOT AVAILABLE", "CENSUS_COD": "250250106001000", "BUSINESS_N": "Self-Serve Drop Box", "ZIP": "02116" }, "geometry": { "type": "Point", "coordinates": [ -71.0726570003, 42.3503109999 ] } },
{ "type": "Feature", "properties": { "OBJECTID": 48918, "FEATURE_ID": 26452.0, "NAME": "UPS DROP BOX", "ADDRESS": "31 ST JAMES AVE", "ADDRESS2": "NOT AVAILABLE", "ADDRESS3": "NOT AVAILABLE", "CITY": "BOSTON", "STATE": "MA", "PHONE": "NOT AVAILABLE", "LATITUDE": 42.350746, "LONGITUDE": -71.071519, "MATCH_STAT": "OK", "PLACEMENT": "NOT AVAILABLE", "CENSUS_COD": "250250703001011", "BUSINESS_N": "Self-Serve Drop Box", "ZIP": "02116" }, "geometry": { "type": "Point", "coordinates": [ -71.0715190001, 42.3507460002 ] } },
{ "type": "Feature", "properties": { "OBJECTID": 48920, "FEATURE_ID": 26454.0, "NAME": "UPS DROP BOX", "ADDRESS": "500 BOYLSTON ST", "ADDRESS2": "NOT AVAILABLE", "ADDRESS3": "NOT AVAILABLE", "CITY": "BOSTON", "STATE": "MA", "PHONE": "NOT AVAILABLE", "LATITUDE": 42.350896, "LONGITUDE": -71.07426, "MATCH_STAT": "OK", "PLACEMENT": "NOT AVAILABLE", "CENSUS_COD": "250250107002008", "BUSINESS_N": "Self-Serve Drop Box", "ZIP": "02116" }, "geometry": { "type": "Point", "coordinates": [ -71.0742599999, 42.3508959998 ] } },
{ "type": "Feature", "properties": { "OBJECTID": 48922, "FEATURE_ID": 26456.0, "NAME": "UPS DROP BOX", "ADDRESS": "399 BOYLSTON ST", "ADDRESS2": "NOT AVAILABLE", "ADDRESS3": "NOT AVAILABLE", "CITY": "BOSTON", "STATE": "MA", "PHONE": "NOT AVAILABLE", "LATITUDE": 42.351606, "LONGITUDE": -71.071869, "MATCH_STAT": "OK", "PLACEMENT": "NOT AVAILABLE", "CENSUS_COD": "250250107002000", "BUSINESS_N": "Self-Serve Drop Box", "ZIP": "02116" }, "geometry": { "type": "Point", "coordinates": [ -71.0718689999, 42.3516059998 ] } },
{ "type": "Feature", "properties": { "OBJECTID": 48923, "FEATURE_ID": 26457.0, "NAME": "UPS DROP BOX", "ADDRESS": "10 PARK PLAZA", "ADDRESS2": "NOT AVAILABLE", "ADDRESS3": "NOT AVAILABLE", "CITY": "BOSTON", "STATE": "MA", "PHONE": "NOT AVAILABLE", "LATITUDE": 42.351543, "LONGITUDE": -71.069037, "MATCH_STAT": "OK", "PLACEMENT": "NOT AVAILABLE", "CENSUS_COD": "250250703001004", "BUSINESS_N": "Self-Serve Drop Box", "ZIP": "02116" }, "geometry": { "type": "Point", "coordinates": [ -71.0690369999, 42.3515429998 ] } },
{ "type": "Feature", "properties": { "OBJECTID": 48924, "FEATURE_ID": 26458.0, "NAME": "UPS DROP BOX", "ADDRESS": "70 NEWMARKET SQ", "ADDRESS2": "NOT AVAILABLE", "ADDRESS3": "NOT AVAILABLE", "CITY": "BOSTON", "STATE": "MA", "PHONE": "NOT AVAILABLE", "LATITUDE": 42.32871, "LONGITUDE": -71.066528, "MATCH_STAT": "OK", "PLACEMENT": "NOT AVAILABLE", "CENSUS_COD": "250250801001017", "BUSINESS_N": "Self-Serve Drop Box", "ZIP": "02118" }, "geometry": { "type": "Point", "coordinates": [ -71.0665279999, 42.3287100002 ] } },
{ "type": "Feature", "properties": { "OBJECTID": 48925, "FEATURE_ID": 26459.0, "NAME": "UPS DROP BOX", "ADDRESS": "535 ALBANY ST", "ADDRESS2": "NOT AVAILABLE", "ADDRESS3": "NOT AVAILABLE", "CITY": "BOSTON", "STATE": "MA", "PHONE": "(617) 573-0005", "LATITUDE": 42.338378, "LONGITUDE": -71.066712, "MATCH_STAT": "OK", "PLACEMENT": "NOT AVAILABLE", "CENSUS_COD": "250250712001000", "BUSINESS_N": "Self-Serve Drop Box", "ZIP": "02118" }, "geometry": { "type": "Point", "coordinates": [ -71.0667120001, 42.3383779999 ] } },
{ "type": "Feature", "properties": { "OBJECTID": 48926, "FEATURE_ID": 26460.0, "NAME": "UPS DROP BOX", "ADDRESS": "221 LONGWOOD AVE", "ADDRESS2": "NOT AVAILABLE", "ADDRESS3": "NOT AVAILABLE", "CITY": "BOSTON", "STATE": "MA", "PHONE": "(617) 573-0005", "LATITUDE": 42.33681, "LONGITUDE": -71.102593, "MATCH_STAT": "OK", "PLACEMENT": "NOT AVAILABLE", "CENSUS_COD": "250250103002012", "BUSINESS_N": "Self-Serve Drop Box", "ZIP": "02115" }, "geometry": { "type": "Point", "coordinates": [ -71.1025929996, 42.3368100003 ] } },
{ "type": "Feature", "properties": { "OBJECTID": 48927, "FEATURE_ID": 26461.0, "NAME": "UPS DROP BOX", "ADDRESS": "20 SHATTUCK ST", "ADDRESS2": "NOT AVAILABLE", "ADDRESS3": "NOT AVAILABLE", "CITY": "BOSTON", "STATE": "MA", "PHONE": "(617) 573-0005", "LATITUDE": 42.335455, "LONGITUDE": -71.104558, "MATCH_STAT": "OK", "PLACEMENT": "NOT AVAILABLE", "CENSUS_COD": "250250810001012", "BUSINESS_N": "Self-Serve Drop Box", "ZIP": "02115" }, "geometry": { "type": "Point", "coordinates": [ -71.1045579996, 42.3354549997 ] } },
{ "type": "Feature", "properties": { "OBJECTID": 48928, "FEATURE_ID": 26462.0, "NAME": "UPS DROP BOX", "ADDRESS": "400 FENWAY", "ADDRESS2": "NOT AVAILABLE", "ADDRESS3": "NOT AVAILABLE", "CITY": "BOSTON", "STATE": "MA", "PHONE": "(617) 573-0005", "LATITUDE": 42.342342, "LONGITUDE": -71.102906, "MATCH_STAT": "OK", "PLACEMENT": "NOT AVAILABLE", "CENSUS_COD": "250250103002007", "BUSINESS_N": "Emmanuel College", "ZIP": "02115" }, "geometry": { "type": "Point", "coordinates": [ -71.1029059996, 42.3423420002 ] } },
{ "type": "Feature", "properties": { "OBJECTID": 48930, "FEATURE_ID": 26464.0, "NAME": "UPS DROP BOX", "ADDRESS": "44 BINNEY ST", "ADDRESS2": "NOT AVAILABLE", "ADDRESS3": "NOT AVAILABLE", "CITY": "BOSTON", "STATE": "MA", "PHONE": "(617) 573-0005", "LATITUDE": 42.337324, "LONGITUDE": -71.107131, "MATCH_STAT": "OK", "PLACEMENT": "NOT AVAILABLE", "CENSUS_COD": "250250810001002", "BUSINESS_N": "Self-Serve Drop Box", "ZIP": "02115" }, "geometry": { "type": "Point", "coordinates": [ -71.1071310001, 42.3373239999 ] } },
{ "type": "Feature", "properties": { "OBJECTID": 48932, "FEATURE_ID": 26466.0, "NAME": "AUTHORIZED SHIPPING OUTLET", "ADDRESS": "360 HUNTINGTON AVE CSC 140", "ADDRESS2": "NOT AVAILABLE", "ADDRESS3": "NOT AVAILABLE", "CITY": "BOSTON", "STATE": "MA", "PHONE": "(617) 373-2090", "LATITUDE": 42.340141, "LONGITUDE": -71.089115, "MATCH_STAT": "OK", "PLACEMENT": "NOT AVAILABLE", "CENSUS_COD": "250250104022000", "BUSINESS_N": "Usp Store", "ZIP": "02115" }, "geometry": { "type": "Point", "coordinates": [ -71.0891149996, 42.3401410003 ] } },
{ "type": "Feature", "properties": { "OBJECTID": 48941, "FEATURE_ID": 26491.0, "NAME": "AUTHORIZED SHIPPING OUTLET", "ADDRESS": "71 PRINCE ST", "ADDRESS2": "NOT AVAILABLE", "ADDRESS3": "NOT AVAILABLE", "CITY": "BOSTON", "STATE": "MA", "PHONE": "(617) 973-4820", "LATITUDE": 42.365286, "LONGITUDE": -71.055371, "MATCH_STAT": "OK", "PLACEMENT": "NOT AVAILABLE", "CENSUS_COD": "250250304001004", "BUSINESS_N": "Prince Postale", "ZIP": "02113" }, "geometry": { "type": "Point", "coordinates": [ -71.0553709996, 42.3652860002 ] } },
{ "type": "Feature", "properties": { "OBJECTID": 49007, "FEATURE_ID": 26639.0, "NAME": "UPS DROP BOX", "ADDRESS": "1 HARBORSIDE DR", "ADDRESS2": "NOT AVAILABLE", "ADDRESS3": "NOT AVAILABLE", "CITY": "BOSTON", "STATE": "MA", "PHONE": "(617) 573-0005", "LATITUDE": 42.368849, "LONGITUDE": -71.028319, "MATCH_STAT": "OK", "PLACEMENT": "NOT AVAILABLE", "CENSUS_COD": "250250512009000", "BUSINESS_N": "Self-Serve Drop Box", "ZIP": "02128" }, "geometry": { "type": "Point", "coordinates": [ -71.0283190002, 42.3688490002 ] } }
]
}
